{"type":"FeatureCollection","features":[{"type":"Feature","properties":{"fid":1,"id":1,"nazwa":"POLOmarket","typ":"sklep","ulica":"Dworcowa","nr_budyn":52,"nr_lokal":null,"kod_pocz":"64-320","telefon":"518 011 050","www":"polomarket.pl","mail":"poczta@polomarket.pl","otwarte":"pn-sb 6:15-21:00"},"geometry":{"type":"Point","coordinates":[16.521635055541992,52.351450136289934]}},{"type":"Feature","properties":{"fid":2,"id":2,"nazwa":"Biedronka","typ":"sklep","ulica":"Jana Pawła II","nr_budyn":20,"nr_lokal":null,"kod_pocz":"64-320","telefon":"800 080 010","www":"biedronka.pl","mail":"bok@biedronka.eu","otwarte":"pn-cz 7-21 pt-sb 7-22"},"geometry":{"type":"Point","coordinates":[16.519060134887695,52.35032622283716]}},{"type":"Feature","properties":{"fid":3,"id":3,"nazwa":"Netto","typ":"sklep","ulica":"Przemysłowa","nr_budyn":2,"nr_lokal":null,"kod_pocz":"64-320","telefon":"91 469 99 99","www":"netto.pl","mail":"netto@netto.pl","otwarte":"pn-sb 6-21"},"geometry":{"type":"Point","coordinates":[16.52514338493347,52.35137149604524]}},{"type":"Feature","properties":{"fid":4,"id":4,"nazwa":"Lewiatan","typ":"sklep","ulica":"Wróblewskiego","nr_budyn":5,"nr_lokal":null,"kod_pocz":"64-320","telefon":"61 846 08 90","www":"lewiatan.pl","mail":"sekretariat@lewiatan.pl","otwarte":"pn-sb 7-21"},"geometry":{"type":"Point","coordinates":[16.518539786338806,52.35401897401445]}},{"type":"Feature","properties":{"fid":5,"id":5,"nazwa":"Żabka","typ":"sklep","ulica":"Dobieżyńska","nr_budyn":58,"nr_lokal":null,"kod_pocz":"64-320","telefon":null,"www":"zabka.pl","mail":"kontakt@zabka.pl","otwarte":"pn-sb 5-23 nd 11-21"},"geometry":{"type":"Point","coordinates":[16.525398194789886,52.34891883318777]}},{"type":"Feature","properties":{"fid":6,"id":6,"nazwa":"Żabka","typ":"sklep","ulica":"Dworcowa","nr_budyn":13,"nr_lokal":null,"kod_pocz":"64-320","telefon":"61 856 37 00","www":"zabka.pl","mail":"kontakt@zabka.pl","otwarte":"pn-sb 5-23 nd 11-21"},"geometry":{"type":"Point","coordinates":[16.519701182842255,52.35460382245201]}},{"type":"Feature","properties":{"fid":7,"id":7,"nazwa":"Żabka","typ":"sklep","ulica":"Poznańska","nr_budyn":6,"nr_lokal":null,"kod_pocz":"64-320","telefon":null,"www":"zabka.pl","mail":"kontakt@zabka.pl","otwarte":"pn-sb 5-23 nd 11-21"},"geometry":{"type":"Point","coordinates":[16.518268883228302,52.357102037461175]}},{"type":"Feature","properties":{"fid":8,"id":8,"nazwa":"Parafia św. Stanisława Męczennika","typ":"religia","ulica":"Mury","nr_budyn":30,"nr_lokal":null,"kod_pocz":"64-320","telefon":"61 814 01 41","www":"sanktuarium-buk.pl","mail":"info@sanktuarium-buk.pl","otwarte":null},"geometry":{"type":"Point","coordinates":[16.518730223178864,52.35648937353865]}},{"type":"Feature","properties":{"fid":9,"id":9,"nazwa":"Szkoła Podstawowa im. Bohaterów Bukowskich","typ":"szkoła","ulica":"Szkolna","nr_budyn":12,"nr_lokal":null,"kod_pocz":"64-320","telefon":"61 814 01 82","www":"spbuk.pl","mail":"sekretariat@spbuk.pl","otwarte":null},"geometry":{"type":"Point","coordinates":[16.522630155086517,52.35659421502618]}},{"type":"Feature","properties":{"fid":10,"id":10,"nazwa":"Zespół Szkół Ponadgimnazjalnych","typ":"szkoła","ulica":"Dworcowa","nr_budyn":44,"nr_lokal":null,"kod_pocz":"64-320","telefon":"61 830 10 01","www":"zspgbuk.pl","mail":"sekretariat@zspgbuk.pl","otwarte":null},"geometry":{"type":"Point","coordinates":[16.52115225791931,52.35405501531842]}},{"type":"Feature","properties":{"fid":11,"id":11,"nazwa":"Terra","typ":"stacja paliw","ulica":"Dobieżyńska","nr_budyn":43,"nr_lokal":null,"kod_pocz":"64-320","telefon":"61 894 03 03","www":null,"mail":null,"otwarte":null},"geometry":{"type":"Point","coordinates":[16.528485417366028,52.347003466092865]}},{"type":"Feature","properties":{"fid":12,"id":12,"nazwa":"Orlen","typ":"stacja paliw","ulica":"Św.Rocha","nr_budyn":62,"nr_lokal":null,"kod_pocz":"64-320","telefon":"61 814 03 31","www":"dlakierowcow.orlen.pl","mail":null,"otwarte":"24h"},"geometry":{"type":"Point","coordinates":[16.534997820854187,52.365314845350156]}},{"type":"Feature","properties":{"fid":13,"id":13,"nazwa":"Restauracja Parkowa","typ":"gastronomia","ulica":"Przykop","nr_budyn":1,"nr_lokal":null,"kod_pocz":"64-320","telefon":"61 814 06 32","www":"parkowa-buk.pl","mail":"parko@op.pl","otwarte":"pn-nd 10:30-21:30"},"geometry":{"type":"Point","coordinates":[16.518668532371517,52.35518538675343]}},{"type":"Feature","properties":{"fid":14,"id":14,"nazwa":"Restauacja Pokusa","typ":"gastronomia","ulica":"Dworcowa","nr_budyn":29,"nr_lokal":null,"kod_pocz":"64-320","telefon":"61 894 91 64","www":"pokusa.eu","mail":null,"otwarte":"wt-nd 12:00-21:30"},"geometry":{"type":"Point","coordinates":[16.519886255264282,52.35282631792395]}},{"type":"Feature","properties":{"fid":15,"id":15,"nazwa":"Hotel i Restauracja Melodia","typ":"noclegi","ulica":"Lipowa","nr_budyn":0,"nr_lokal":null,"kod_pocz":"64-320","telefon":"61 814 08 99","www":"melodia-buk.pl","mail":"melodia.buk@wp.pl","otwarte":null},"geometry":{"type":"Point","coordinates":[16.512274146080017,52.35042780219565]}},{"type":"Feature","properties":{"fid":16,"id":16,"nazwa":"Pizzeria Mateo","typ":"gastronomia","ulica":"Dworcowa","nr_budyn":29,"nr_lokal":null,"kod_pocz":"64-320","telefon":"698 663 333","www":"mateo-pizza.pl","mail":null,"otwarte":"nd-cz 12-22 pt-sb 12-24"},"geometry":{"type":"Point","coordinates":[16.52043879032135,52.3524003615207]}},{"type":"Feature","properties":{"fid":17,"id":17,"nazwa":"Restauracja NOVA Trattoria","typ":"gastronomia","ulica":"Dworcowa","nr_budyn":37,"nr_lokal":null,"kod_pocz":"64-320","telefon":"789 257 459","www":"novatrattoria.pl","mail":"novatrattoriabuk@gmail.com","otwarte":"nd-cz 12-22 pt-sb 12-24"},"geometry":{"type":"Point","coordinates":[16.520723104476925,52.351597586371646]}},{"type":"Feature","properties":{"fid":18,"id":18,"nazwa":"Piekarnia Szczęsny","typ":"piekarnia","ulica":"Dworcowa","nr_budyn":113,"nr_lokal":null,"kod_pocz":"64-320","telefon":"61 814 98 29","www":null,"mail":null,"otwarte":"nd-pt 17:30-22:00"},"geometry":{"type":"Point","coordinates":[16.521983742713928,52.34465379209018]}},{"type":"Feature","properties":{"fid":19,"id":19,"nazwa":"Urząd Miasta i Gminy Buk","typ":"administracja","ulica":"Ratuszowa","nr_budyn":1,"nr_lokal":null,"kod_pocz":"64-320","telefon":"61 814 06 71","www":"buk.gmina.pl","mail":"buk@buk.gmina.pl","otwarte":"pn 8-16 wt-pt 7-15"},"geometry":{"type":"Point","coordinates":[16.517547369003296,52.35654834690599]}},{"type":"Feature","properties":{"fid":20,"id":20,"nazwa":"Wielkopolanin","typ":"kino","ulica":"plac Reszki","nr_budyn":30,"nr_lokal":null,"kod_pocz":"64-320","telefon":"61 814 03 70","www":"bibliotekabuk.pl","mail":null,"otwarte":null},"geometry":{"type":"Point","coordinates":[16.520862579345703,52.35751811988104]}},{"type":"Feature","properties":{"fid":21,"id":21,"nazwa":"Ośrodek Sportu i Rekreacji","typ":"sport","ulica":"Szarych Szeregów","nr_budyn":10,"nr_lokal":null,"kod_pocz":"64-320","telefon":"61 291 91 12","www":"osir-buk.pl","mail":"osirbuk@post.pl","otwarte":null},"geometry":{"type":"Point","coordinates":[16.522369980812073,52.35507726551876]}},{"type":"Feature","properties":{"fid":22,"id":22,"nazwa":"Stadion MKS Patria","typ":"sport","ulica":"Sportowa","nr_budyn":14,"nr_lokal":null,"kod_pocz":"64--320","telefon":"61 814-06-82","www":"patria-buk.futbolowo.pl","mail":null,"otwarte":null},"geometry":{"type":"Point","coordinates":[16.524338722229,52.359831073565736]}},{"type":"Feature","properties":{"fid":23,"id":23,"nazwa":"Bukowski Lider","typ":"szkoła","ulica":"Niegolewskich","nr_budyn":11,"nr_lokal":null,"kod_pocz":"64-320","telefon":"61 814 93 99","www":"cds-lider.com.pl","mail":"biuro@cds-lider.com.pl","otwarte":null},"geometry":{"type":"Point","coordinates":[16.510616540908813,52.359470706307576]}},{"type":"Feature","properties":{"fid":24,"id":24,"nazwa":"Poczta Polska","typ":"poczta","ulica":"Dworcowa","nr_budyn":10,"nr_lokal":null,"kod_pocz":"64-320","telefon":"61 814 01 06","www":"placowki.poczta-polska.pl","mail":null,"otwarte":"pn-pt 9-18 sb 9-12"},"geometry":{"type":"Point","coordinates":[16.519438326358795,52.35650247873819]}},{"type":"Feature","properties":{"fid":25,"id":25,"nazwa":"Restauracja Przy MBynie","typ":"gastronomia","ulica":"Dobieżyńska","nr_budyn":21,"nr_lokal":null,"kod_pocz":"64-320","telefon":"61 814 05 22","www":"przy-mynie.business.site","mail":null,"otwarte":"pn-pt 9-18 sb 9-15"},"geometry":{"type":"Point","coordinates":[16.52340531349182,52.353176909729875]}},{"type":"Feature","properties":{"fid":26,"id":26,"nazwa":"Wavin","typ":"firma","ulica":"Dobieżyńska","nr_budyn":43,"nr_lokal":null,"kod_pocz":"64-320","telefon":"61 891 10 00","www":"pl.wavin.com","mail":null,"otwarte":"pn-pt 8-16"},"geometry":{"type":"Point","coordinates":[16.527010202407837,52.34889425671901]}},{"type":"Feature","properties":{"fid":27,"id":27,"nazwa":"PKO BP oddział Buk","typ":"bank","ulica":"Dworcowa","nr_budyn":46,"nr_lokal":null,"kod_pocz":"64-320","telefon":"61 894 05 00","www":"pkobp.pl","mail":null,"otwarte":"pn-pt 9:30-17:00"},"geometry":{"type":"Point","coordinates":[16.520594358444214,52.353291588688926]}},{"type":"Feature","properties":{"fid":28,"id":28,"nazwa":"Przedszkole im. Krasnala Hałabały","typ":"przedszkole","ulica":"Wegnera","nr_budyn":10,"nr_lokal":null,"kod_pocz":"64-320","telefon":"61 814 08 71","www":"przedszkole-halabala.pl","mail":"biuro@przedszkole-halabala.pl","otwarte":null},"geometry":{"type":"Point","coordinates":[16.517979204654694,52.354525187818325]}},{"type":"Feature","properties":{"fid":29,"id":29,"nazwa":"Przedszkole Sióstr Miłosierdzia św. Wincentego Paulo","typ":"przedszkole","ulica":"plac Reszki","nr_budyn":26,"nr_lokal":null,"kod_pocz":"64-320","telefon":"61 814 02 40","www":"przedszkolebuk.pl","mail":null,"otwarte":null},"geometry":{"type":"Point","coordinates":[16.52044951915741,52.35723800183243]}},{"type":"Feature","properties":{"fid":30,"id":30,"nazwa":"Komisariat Policji w Buku","typ":"policja","ulica":"Wegnera","nr_budyn":14,"nr_lokal":null,"kod_pocz":"64-320","telefon":"61 894 04 00","www":"poznan.policja.gov.pl","mail":null,"otwarte":null},"geometry":{"type":"Point","coordinates":[16.516823172569275,52.3543761092745]}}]}